season,location,lat,lon,state,date_report,month
2014/2015,Alto Piquiri,-24.028,-53.441,PR,2015-01-16,Jan
2014/2015,Alvorada do Sul,-22.78,-51.231,PR,2015-02-04,Feb
2014/2015,Arapoti,-24.158,-49.827,PR,2014-12-12,Dec
2014/2015,Arroio Grande,-32.238,-53.087,RS,2015-02-25,Feb
2014/2015,Assis Chateaubriand,-24.42,-53.521,PR,2015-01-15,Jan
2014/2015,Bagé,-31.331,-54.107,RS,2015-02-25,Feb
2014/2015,Boa Esperança,-24.242,-52.789,PR,2014-12-04,Dec
2014/2015,Boa Ventura de São Roque,-24.869,-51.628,PR,2015-01-06,Jan
2014/2015,Boa Vista do Cadeado,-28.607,-53.815,RS,2015-01-19,Jan
2014/2015,Bossoroca,-28.73,-54.9,RS,2015-01-12,Jan
2014/2015,Bozano,-28.368,-53.771,RS,2015-01-25,Jan
2014/2015,Caçapava do Sul,-30.512,-53.491,RS,2015-02-25,Feb
2014/2015,Cachoeira do Sul,-30.039,-52.894,RS,2015-02-02,Feb
2014/2015,Cafelândia,-24.618,-53.32,PR,2015-01-06,Jan
2014/2015,Cambé,-23.276,-51.278,PR,2015-01-22,Jan
2014/2015,Campinas do Sul,-27.716,-52.628,RS,2015-02-17,Feb
2014/2015,Campo Largo,-25.459,-49.528,PR,2015-02-22,Feb
2014/2015,Campo Mourão,-24.046,-52.383,PR,2015-01-16,Jan
2014/2015,Campo Novo,-27.675,-53.803,RS,2015-01-12,Jan
2014/2015,Candelária,-29.669,-52.789,RS,2015-03-02,Mar
2014/2015,Candói,-25.663,-52.126,PR,2015-01-14,Jan
2014/2015,Capão do Leão,-31.763,-52.484,RS,2015-02-25,Feb
2014/2015,Capivari do Sul,-30.145,-50.515,RS,2015-02-25,Feb
2014/2015,Carambeí,-24.918,-50.097,PR,2014-12-17,Dec
2014/2015,Carazinho,-28.284,-52.786,RS,2015-02-17,Feb
2014/2015,Cascavel,-24.956,-53.455,PR,2014-12-05,Dec
2014/2015,Castro,-24.791,-50.012,PR,2014-12-19,Dec
2014/2015,Céu Azul,-25.147,-53.849,PR,2015-01-08,Jan
2014/2015,Chapada,-28.055,-53.068,RS,2015-01-13,Jan
2014/2015,Coxilha,-28.127,-52.296,RS,2015-01-16,Jan
2014/2015,Cruz Alta,-28.639,-53.606,RS,2015-01-19,Jan
2014/2015,Dom Pedrito,-30.983,-54.673,RS,2015-02-25,Feb
2014/2015,Doutor Maurício Cardoso,-27.506,-54.361,RS,2015-01-29,Jan
2014/2015,Encruzilhada do Sul,-30.544,-52.522,RS,2015-02-25,Feb
2014/2015,Entre Rios do Sul,-27.528,-52.733,RS,2015-02-17,Feb
2014/2015,Erebango,-27.855,-52.302,RS,2015-01-25,Jan
2014/2015,Erechim,-27.634,-52.274,RS,2015-02-03,Feb
2014/2015,Esmeralda,-28.054,-51.19,RS,2015-02-24,Feb
2014/2015,Espumoso,-28.725,-52.85,RS,2015-02-18,Feb
2014/2015,Estação,-27.911,-52.26,RS,2015-02-17,Feb
2014/2015,Faxinal,-24.001,-51.32,PR,2015-01-15,Jan
2014/2015,Fortaleza dos Valos,-28.797,-53.223,RS,2015-01-16,Jan
2014/2015,Goioerê,-24.185,-53.028,PR,2015-01-09,Jan
2014/2015,Guaíra,-24.08,-54.256,PR,2015-02-11,Feb
2014/2015,Honório Serpa,-26.141,-52.387,PR,2015-01-09,Jan
2014/2015,Ibirubá,-28.628,-53.09,RS,2015-02-18,Feb
2014/2015,Iguaraçu,-23.197,-51.828,PR,2015-01-23,Jan
2014/2015,Ijuí,-28.388,-53.915,RS,2015-02-24,Feb
2014/2015,Ipiranga do Sul,-27.937,-52.426,RS,2015-01-25,Jan
2014/2015,Itaqui,-29.125,-56.553,RS,2015-03-02,Mar
2014/2015,Ivaiporã,-24.248,-51.685,PR,2015-01-07,Jan
2014/2015,Jacarezinho,-23.161,-49.969,PR,2015-01-08,Jan
2014/2015,Jacutinga,-27.729,-52.535,RS,2015-02-17,Feb
2014/2015,Jaguapitã,-23.113,-51.532,PR,2015-01-07,Jan
2014/2015,Jaguariaíva,-24.251,-49.706,PR,2014-12-22,Dec
2014/2015,Janiópolis,-24.142,-52.782,PR,2015-01-05,Jan
2014/2015,Jari,-29.291,-54.224,RS,2015-01-15,Jan
2014/2015,Joia,-28.647,-54.122,RS,2015-01-16,Jan
2014/2015,Júlio de Castilhos,-29.227,-53.682,RS,2015-01-09,Jan
2014/2015,Juranda,-24.42,-52.843,PR,2015-01-16,Jan
2014/2015,Lagoa Vermelha,-28.209,-51.526,RS,2015-02-19,Feb
2014/2015,Londrina,-23.31,-51.163,PR,2015-01-02,Jan
2014/2015,Maçambara,-29.143,-56.065,RS,2015-03-02,Mar
2014/2015,Mamborê,-24.319,-52.53,PR,2015-01-02,Jan
2014/2015,Manoel Viana,-29.589,-55.483,RS,2015-02-25,Feb
2014/2015,Marilândia do Sul,-23.745,-51.308,PR,2015-01-12,Jan
2014/2015,Maringá,-23.425,-51.939,PR,2015-01-23,Jan
2014/2015,Maripá,-24.418,-53.83,PR,2015-01-08,Jan
2014/2015,Mato Castelhano,-28.278,-52.192,RS,2015-02-19,Feb
2014/2015,Mauá da Serra,-23.901,-51.229,PR,2015-01-15,Jan
2014/2015,Não-Me-Toque,-28.459,-52.821,RS,2015-02-17,Feb
2014/2015,Nonoai,-27.362,-52.771,RS,2015-01-09,Jan
2014/2015,Nova Santa Rosa,-24.466,-53.953,PR,2015-01-19,Jan
2014/2015,Nova Tebas,-24.438,-51.945,PR,2015-01-07,Jan
2014/2015,Novo Machado,-27.574,-54.505,RS,2015-01-06,Jan
2014/2015,Palmeira,-25.429,-50.006,PR,2014-12-30,Dec
2014/2015,Palmeira das Missões,-27.899,-53.314,RS,2014-12-16,Dec
2014/2015,Palotina,-24.284,-53.84,PR,2014-12-22,Dec
2014/2015,Panambi,-28.293,-53.502,RS,2015-02-24,Feb
2014/2015,Paraíso do Sul,-29.669,-53.149,RS,2015-02-25,Feb
2014/2015,Passo Fundo,-28.263,-52.407,RS,2014-12-29,Dec
2014/2015,Peabiru,-23.913,-52.343,PR,2015-01-15,Jan
2014/2015,Pedro Osório,-31.864,-52.823,RS,2015-02-25,Feb
2014/2015,Pejuçara,-28.423,-53.656,RS,2015-01-25,Jan
2014/2015,Pinhal Grande,-29.346,-53.307,RS,2015-02-25,Feb
2014/2015,Pinhão,-25.696,-51.66,PR,2015-01-13,Jan
2014/2015,Piraí do Sul,-24.526,-49.949,PR,2015-01-07,Jan
2014/2015,Ponta Grossa,-25.095,-50.162,PR,2014-12-16,Dec
2014/2015,Pontão,-28.059,-52.677,RS,2015-02-05,Feb
2014/2015,Quatro Irmãos,-27.821,-52.439,RS,2015-02-17,Feb
2014/2015,Quinta do Sol,-23.852,-52.13,PR,2014-12-23,Dec
2014/2015,Rancho Alegre do Oeste,-24.307,-52.954,PR,2015-01-15,Jan
2014/2015,Reserva,-24.65,-50.851,PR,2015-01-07,Jan
2014/2015,Restinga Seca,-29.813,-53.375,RS,2015-02-25,Feb
2014/2015,Rio Negro,-26.106,-49.798,PR,2015-02-27,Feb
2014/2015,Rio Pardo,-29.99,-52.378,RS,2015-02-25,Feb
2014/2015,Roncador,-24.603,-52.275,PR,2015-01-19,Jan
2014/2015,Ronda Alta,-27.767,-52.802,RS,2015-01-20,Jan
2014/2015,Rosário do Sul,-30.258,-54.914,RS,2015-03-02,Mar
2014/2015,Saldanha Marinho,-28.393,-53.095,RS,2014-12-05,Dec
2014/2015,Santa Cecília do Sul,-28.162,-51.925,RS,2015-01-21,Jan
2014/2015,Santa Cruz do Sul,-29.718,-52.426,RS,2015-02-25,Feb
2014/2015,Santa Helena,-24.86,-54.333,PR,2015-01-08,Jan
2014/2015,Santa Maria,-29.684,-53.807,RS,2015-02-25,Feb
2014/2015,Santa Tereza do Oeste,-25.052,-53.633,PR,2015-01-15,Jan
2014/2015,Santana da Boa Vista,-30.872,-53.115,RS,2015-03-02,Mar
2014/2015,Santana do Itararé,-23.755,-49.629,PR,2014-12-23,Dec
2014/2015,São Borja,-28.661,-56.004,RS,2015-03-02,Mar
2014/2015,São Gabriel,-30.336,-54.32,RS,2015-02-25,Feb
2014/2015,São Lourenço do Sul,-31.365,-51.978,RS,2015-02-25,Feb
2014/2015,São Luiz Gonzaga,-28.408,-54.961,RS,2015-01-12,Jan
2014/2015,São Martinho da Serra,-29.538,-53.855,RS,2015-01-09,Jan
2014/2015,São Miguel das Missões,-28.563,-54.554,RS,2015-01-12,Jan
2014/2015,São Pedro do Iguaçu,-24.936,-53.855,PR,2015-01-10,Jan
2014/2015,São Pedro do Sul,-29.621,-54.179,RS,2015-02-25,Feb
2014/2015,Sarandi,-27.944,-52.923,RS,2015-02-18,Feb
2014/2015,Sentinela do Sul,-30.611,-51.579,RS,2015-02-25,Feb
2014/2015,Sertão,-27.98,-52.26,RS,2015-02-03,Feb
2014/2015,Tapejara,-28.068,-52.014,RS,2015-01-21,Jan
2014/2015,Tapera,-28.626,-52.87,RS,2015-02-26,Feb
2014/2015,Tibagi,-24.509,-50.414,PR,2014-12-22,Dec
2014/2015,Toledo,-24.714,-53.743,PR,2014-12-04,Dec
2014/2015,Três Barras do Paraná,-25.419,-53.181,PR,2015-01-09,Jan
2014/2015,Três de Maio,-27.773,-54.24,RS,2015-01-30,Jan
2014/2015,Três Palmeiras,-27.615,-52.841,RS,2015-02-17,Feb
2014/2015,Trindade do Sul,-27.522,-52.894,RS,2015-02-17,Feb
2014/2015,Tupanciretã,-29.081,-53.836,RS,2015-01-15,Jan
2014/2015,Tupãssi,-24.588,-53.512,PR,2015-01-13,Jan
2014/2015,União da Vitória,-26.23,-51.086,PR,2015-02-27,Feb
2014/2015,Uruguaiana,-29.755,-57.088,RS,2015-02-25,Feb
2014/2015,Vacaria,-28.512,-50.934,RS,2015-02-19,Feb
2014/2015,Ventania,-24.246,-50.243,PR,2014-12-15,Dec
2014/2015,Victor Graeff,-28.56,-52.748,RS,2015-02-17,Feb
2014/2015,Vitorino,-26.277,-52.784,PR,2015-01-16,Jan
2014/2015,Wenceslau Braz,-23.874,-49.803,PR,2015-01-08,Jan
2015/2016,Água Santa,-28.177,-52.034,RS,2016-01-19,Jan
2015/2016,Alto Alegre,-28.773,-52.99,RS,2016-01-07,Jan
2015/2016,Arapoti,-24.158,-49.827,PR,2015-11-13,Nov
2015/2016,Araruna,-23.932,-52.496,PR,2015-12-28,Dec
2015/2016,Arroio Grande,-32.238,-53.087,RS,2016-01-04,Jan
2015/2016,Assis Chateaubriand,-24.42,-53.521,PR,2015-12-15,Dec
2015/2016,Augusto Pestana,-28.517,-53.992,RS,2015-12-06,Dec
2015/2016,Boa Esperança,-24.242,-52.789,PR,2015-12-09,Dec
2015/2016,Boa Ventura de São Roque,-24.869,-51.628,PR,2015-12-21,Dec
2015/2016,Brasilândia do Sul,-24.197,-53.525,PR,2015-12-11,Dec
2015/2016,Cachoeira do Sul,-30.039,-52.894,RS,2016-01-05,Jan
2015/2016,Cafelândia,-24.618,-53.32,PR,2015-12-11,Dec
2015/2016,Cambé,-23.276,-51.278,PR,2016-01-04,Jan
2015/2016,Campina da Lagoa,-24.592,-52.799,PR,2015-12-05,Dec
2015/2016,Campinas do Sul,-27.716,-52.628,RS,2015-12-07,Dec
2015/2016,Campo Mourão,-24.046,-52.383,PR,2015-11-26,Nov
2015/2016,Cândido de Abreu,-24.567,-51.333,PR,2015-12-03,Dec
2015/2016,Capivari do Sul,-30.145,-50.515,RS,2016-01-06,Jan
2015/2016,Carambeí,-24.918,-50.097,PR,2015-12-09,Dec
2015/2016,Carazinho,-28.284,-52.786,RS,2016-01-06,Jan
2015/2016,Cascavel,-24.956,-53.455,PR,2015-12-16,Dec
2015/2016,Castro,-24.791,-50.012,PR,2015-11-12,Nov
2015/2016,Chapada,-28.055,-53.068,RS,2015-12-30,Dec
2015/2016,Coronel Vivida,-25.98,-52.568,PR,2015-12-01,Dec
2015/2016,Coxilha,-28.127,-52.296,RS,2016-01-08,Jan
2015/2016,Cruz Alta,-28.639,-53.606,RS,2015-12-23,Dec
2015/2016,Dom Pedrito,-30.983,-54.673,RS,2015-12-12,Dec
2015/2016,Engenheiro Beltrão,-23.797,-52.269,PR,2015-12-03,Dec
2015/2016,Erebango,-27.855,-52.302,RS,2016-01-09,Jan
2015/2016,Erechim,-27.634,-52.274,RS,2016-01-13,Jan
2015/2016,Espumoso,-28.725,-52.85,RS,2016-01-06,Jan
2015/2016,Fênix,-23.916,-51.979,PR,2015-12-10,Dec
2015/2016,Fortaleza dos Valos,-28.797,-53.223,RS,2016-01-05,Jan
2015/2016,Goioerê,-24.185,-53.028,PR,2015-12-28,Dec
2015/2016,Honório Serpa,-26.141,-52.387,PR,2015-12-08,Dec
2015/2016,Ibiaçá,-28.057,-51.855,RS,2016-01-12,Jan
2015/2016,Ibirubá,-28.628,-53.09,RS,2015-12-29,Dec
2015/2016,Ipiranga do Sul,-27.937,-52.426,RS,2016-01-09,Jan
2015/2016,Iretama,-24.424,-52.106,PR,2015-12-15,Dec
2015/2016,Ivaiporã,-24.248,-51.685,PR,2015-11-27,Nov
2015/2016,Jacarezinho,-23.161,-49.969,PR,2015-12-09,Dec
2015/2016,Jacuizinho,-29.034,-53.059,RS,2016-01-06,Jan
2015/2016,Janiópolis,-24.142,-52.782,PR,2015-12-07,Dec
2015/2016,Jardim Alegre,-24.179,-51.692,PR,2015-12-17,Dec
2015/2016,Jari,-29.291,-54.224,RS,2015-12-06,Dec
2015/2016,Joia,-28.647,-54.122,RS,2016-01-06,Jan
2015/2016,Júlio de Castilhos,-29.227,-53.682,RS,2015-12-28,Dec
2015/2016,Juranda,-24.42,-52.843,PR,2015-12-01,Dec
2015/2016,Jussara,-23.621,-52.469,PR,2015-12-04,Dec
2015/2016,Londrina,-23.31,-51.163,PR,2015-11-27,Nov
2015/2016,Luiziana,-24.286,-52.276,PR,2015-12-03,Dec
2015/2016,Maçambara,-29.143,-56.065,RS,2016-01-05,Jan
2015/2016,Mamborê,-24.319,-52.53,PR,2015-11-20,Nov
2015/2016,Mangueirinha,-25.941,-52.176,PR,2015-12-11,Dec
2015/2016,Manoel Ribas,-24.516,-51.668,PR,2015-12-08,Dec
2015/2016,Manoel Viana,-29.589,-55.483,RS,2016-01-04,Jan
2015/2016,Marechal Cândido Rondon,-24.556,-54.057,PR,2015-12-10,Dec
2015/2016,Marilândia do Sul,-23.745,-51.308,PR,2015-12-02,Dec
2015/2016,Maximiliano de Almeida,-27.632,-51.803,RS,2016-01-19,Jan
2015/2016,Minas do Leão,-30.127,-52.048,RS,2016-01-06,Jan
2015/2016,Moreira Sales,-24.062,-53.007,PR,2015-12-28,Dec
2015/2016,Mormaço,-28.692,-52.692,RS,2015-12-16,Dec
2015/2016,Não-Me-Toque,-28.459,-52.821,RS,2016-01-04,Jan
2015/2016,Nonoai,-27.362,-52.771,RS,2016-01-07,Jan
2015/2016,Nova Tebas,-24.438,-51.945,PR,2015-12-10,Dec
2015/2016,Ouro Verde do Oeste,-24.805,-53.903,PR,2015-12-15,Dec
2015/2016,Palmas,-26.484,-51.991,PR,2016-01-07,Jan
2015/2016,Palmital,-24.893,-52.203,PR,2015-12-16,Dec
2015/2016,Paraíso do Norte,-23.281,-52.602,PR,2016-01-02,Jan
2015/2016,Passo Fundo,-28.263,-52.407,RS,2015-12-13,Dec
2015/2016,Pato Branco,-26.229,-52.671,PR,2015-11-23,Nov
2015/2016,Peabiru,-23.913,-52.343,PR,2015-12-11,Dec
2015/2016,Pelotas,-31.772,-52.343,RS,2016-02-15,Feb
2015/2016,Piraí do Sul,-24.526,-49.949,PR,2015-11-20,Nov
2015/2016,Pitanga,-24.757,-51.761,PR,2015-12-11,Dec
2015/2016,Planaltina do Paraná,-23.007,-52.914,PR,2016-01-02,Jan
2015/2016,Ponta Grossa,-25.095,-50.162,PR,2015-11-07,Nov
2015/2016,Pontão,-28.059,-52.677,RS,2016-01-08,Jan
2015/2016,Quinta do Sol,-23.852,-52.13,PR,2015-12-22,Dec
2015/2016,Quinze de Novembro,-28.742,-53.095,RS,2016-01-05,Jan
2015/2016,Rancho Alegre do Oeste,-24.307,-52.954,PR,2015-12-04,Dec
2015/2016,Renascença,-26.158,-52.969,PR,2015-11-23,Nov
2015/2016,Reserva,-24.65,-50.851,PR,2015-12-08,Dec
2015/2016,Rio Azul,-25.733,-50.796,PR,2015-12-25,Dec
2015/2016,Rolândia,-23.31,-51.369,PR,2015-12-29,Dec
2015/2016,Roncador,-24.603,-52.275,PR,2015-12-30,Dec
2015/2016,Ronda Alta,-27.767,-52.802,RS,2015-12-22,Dec
2015/2016,Rosário do Sul,-30.258,-54.914,RS,2016-01-06,Jan
2015/2016,Saldanha Marinho,-28.393,-53.095,RS,2015-12-07,Dec
2015/2016,Santa Maria,-29.684,-53.807,RS,2015-12-12,Dec
2015/2016,Santa Maria do Oeste,-24.939,-51.863,PR,2015-12-30,Dec
2015/2016,Santa Rosa,-27.871,-54.481,RS,2015-12-06,Dec
2015/2016,Santana do Livramento,-30.891,-55.533,RS,2015-12-28,Dec
2015/2016,Santo Antônio da Patrulha,-29.818,-50.52,RS,2016-01-05,Jan
2015/2016,Santo Augusto,-27.851,-53.777,RS,2015-12-03,Dec
2015/2016,Santo Cristo,-27.824,-54.663,RS,2015-12-04,Dec
2015/2016,São Borja,-28.661,-56.004,RS,2015-12-18,Dec
2015/2016,São João da Urtiga,-27.82,-51.828,RS,2016-01-14,Jan
2015/2016,São João do Ivaí,-23.98,-51.818,PR,2015-12-10,Dec
2015/2016,São Pedro do Iguaçu,-24.936,-53.855,PR,2015-12-28,Dec
2015/2016,São Pedro do Ivaí,-23.865,-51.856,PR,2015-12-08,Dec
2015/2016,Seberi,-27.478,-53.403,RS,2016-01-05,Jan
2015/2016,Sertaneja,-23.037,-50.838,PR,2016-01-05,Jan
2015/2016,Sertão,-27.98,-52.26,RS,2015-12-22,Dec
2015/2016,Tamarana,-23.723,-51.097,PR,2015-12-02,Dec
2015/2016,Terra Boa,-23.768,-52.444,PR,2015-12-18,Dec
2015/2016,Tibagi,-24.509,-50.414,PR,2015-11-06,Nov
2015/2016,Toledo,-24.714,-53.743,PR,2015-11-30,Nov
2015/2016,Três de Maio,-27.773,-54.24,RS,2016-01-06,Jan
2015/2016,Tupanciretã,-29.081,-53.836,RS,2015-12-29,Dec
2015/2016,Tuparendi,-27.756,-54.482,RS,2015-12-04,Dec
2015/2016,Tupãssi,-24.588,-53.512,PR,2015-12-28,Dec
2015/2016,Ubiratã,-24.545,-52.988,PR,2015-12-03,Dec
2015/2016,Vacaria,-28.512,-50.934,RS,2016-01-14,Jan
2015/2016,Vale Verde,-29.787,-52.184,RS,2015-12-18,Dec
2015/2016,Venâncio Aires,-29.606,-52.192,RS,2016-01-07,Jan
2015/2016,Ventania,-24.246,-50.243,PR,2015-12-03,Dec
2016/2017,Água Santa,-28.177,-52.034,RS,2017-02-02,Feb
2016/2017,Alto Alegre,-28.773,-52.99,RS,2017-02-01,Feb
2016/2017,Alto Piquiri,-24.028,-53.441,PR,2016-12-14,Dec
2016/2017,Andirá,-23.051,-50.229,PR,2017-01-09,Jan
2016/2017,Antônio Prado,-28.858,-51.283,RS,2017-03-10,Mar
2016/2017,Arapoti,-24.158,-49.827,PR,2016-12-20,Dec
2016/2017,Assaí,-23.373,-50.841,PR,2017-01-16,Jan
2016/2017,Assis Chateaubriand,-24.42,-53.521,PR,2017-02-08,Feb
2016/2017,Bandeirantes,-23.11,-50.368,PR,2017-02-08,Feb
2016/2017,Boa Esperança,-24.242,-52.789,PR,2016-11-16,Nov
2016/2017,Boa Ventura de São Roque,-24.869,-51.628,PR,2016-12-26,Dec
2016/2017,Boa Vista do Incra,-28.819,-53.387,RS,2017-03-17,Mar
2016/2017,Brasilândia do Sul,-24.197,-53.525,PR,2016-12-21,Dec
2016/2017,Cambará,-23.046,-50.074,PR,2017-01-10,Jan
2016/2017,Campinas do Sul,-27.716,-52.628,RS,2017-01-04,Jan
2016/2017,Campo Mourão,-24.046,-52.383,PR,2016-12-02,Dec
2016/2017,Canguçu,-31.395,-52.676,RS,2017-03-06,Mar
2016/2017,Capão do Cipó,-28.925,-54.692,RS,2017-01-10,Jan
2016/2017,Capão do Leão,-31.763,-52.484,RS,2017-03-06,Mar
2016/2017,Capivari do Sul,-30.145,-50.515,RS,2017-03-13,Mar
2016/2017,Carambeí,-24.918,-50.097,PR,2017-01-24,Jan
2016/2017,Carazinho,-28.284,-52.786,RS,2017-02-09,Feb
2016/2017,Cascavel,-24.956,-53.455,PR,2017-02-06,Feb
2016/2017,Castro,-24.791,-50.012,PR,2016-11-18,Nov
2016/2017,Catuípe,-28.25,-54.012,RS,2017-01-12,Jan
2016/2017,Caxias do Sul,-29.168,-51.179,RS,2017-03-10,Mar
2016/2017,Cerrito,-31.856,-52.813,RS,2017-02-10,Feb
2016/2017,Chapada,-28.055,-53.068,RS,2017-01-12,Jan
2016/2017,Charqueadas,-29.955,-51.625,RS,2017-03-15,Mar
2016/2017,Colorado,-28.524,-52.994,RS,2017-01-18,Jan
2016/2017,Cornélio Procópio,-23.181,-50.647,PR,2017-01-10,Jan
2016/2017,Coxilha,-28.127,-52.296,RS,2017-03-28,Mar
2016/2017,Cristal,-31.003,-52.05,RS,2017-01-07,Jan
2016/2017,Cruz Alta,-28.639,-53.606,RS,2017-01-11,Jan
2016/2017,Dom Pedrito,-30.983,-54.673,RS,2017-01-07,Jan
2016/2017,Engenheiro Beltrão,-23.797,-52.269,PR,2017-01-02,Jan
2016/2017,Erebango,-27.855,-52.302,RS,2017-02-03,Feb
2016/2017,Erechim,-27.634,-52.274,RS,2017-02-15,Feb
2016/2017,Ernestina,-28.499,-52.573,RS,2016-12-20,Dec
2016/2017,Erval Grande,-27.391,-52.571,RS,2017-01-07,Jan
2016/2017,Esmeralda,-28.054,-51.19,RS,2017-03-23,Mar
2016/2017,Estação,-27.911,-52.26,RS,2017-03-05,Mar
2016/2017,Estrela Velha,-29.177,-53.159,RS,2017-01-28,Jan
2016/2017,Fortaleza dos Valos,-28.797,-53.223,RS,2017-01-22,Jan
2016/2017,Francisco Alves,-24.066,-53.848,PR,2016-12-26,Dec
2016/2017,Gentil,-28.43,-52.036,RS,2017-02-24,Feb
2016/2017,Goioerê,-24.185,-53.028,PR,2016-12-29,Dec
2016/2017,Honório Serpa,-26.141,-52.387,PR,2017-01-30,Jan
2016/2017,Ibiporã,-23.269,-51.048,PR,2017-01-17,Jan
2016/2017,Ibirubá,-28.628,-53.09,RS,2017-01-21,Jan
2016/2017,Iguaraçu,-23.197,-51.828,PR,2017-02-14,Feb
2016/2017,Ijuí,-28.388,-53.915,RS,2017-02-07,Feb
2016/2017,Ipiranga do Sul,-27.937,-52.426,RS,2017-02-10,Feb
2016/2017,Iretama,-24.424,-52.106,PR,2016-12-15,Dec
2016/2017,Ivaiporã,-24.248,-51.685,PR,2017-02-03,Feb
2016/2017,Jari,-29.291,-54.224,RS,2016-12-28,Dec
2016/2017,Joia,-28.647,-54.122,RS,2017-02-01,Feb
2016/2017,Júlio de Castilhos,-29.227,-53.682,RS,2017-01-20,Jan
2016/2017,Juranda,-24.42,-52.843,PR,2017-01-16,Jan
2016/2017,Jussara,-23.621,-52.469,PR,2017-01-10,Jan
2016/2017,Lagoa Vermelha,-28.209,-51.526,RS,2017-02-03,Feb
2016/2017,Londrina,-23.31,-51.163,PR,2016-12-12,Dec
2016/2017,Luiziana,-24.286,-52.276,PR,2017-01-11,Jan
2016/2017,Lupionópolis,-22.755,-51.657,PR,2017-01-10,Jan
2016/2017,Manoel Ribas,-24.516,-51.668,PR,2017-01-17,Jan
2016/2017,Marau,-28.449,-52.2,RS,2017-03-21,Mar
2016/2017,Marilândia do Sul,-23.745,-51.308,PR,2016-12-16,Dec
2016/2017,Maringá,-23.425,-51.939,PR,2017-02-14,Feb
2016/2017,Maripá,-24.418,-53.83,PR,2016-12-21,Dec
2016/2017,Mato Castelhano,-28.278,-52.192,RS,2017-01-10,Jan
2016/2017,Mormaço,-28.692,-52.692,RS,2017-02-09,Feb
2016/2017,Não-Me-Toque,-28.459,-52.821,RS,2017-03-01,Mar
2016/2017,Nova Fátima,-23.432,-50.564,PR,2017-01-06,Jan
2016/2017,Nova Santa Rosa,-24.466,-53.953,PR,2017-01-19,Jan
2016/2017,Nova Tebas,-24.438,-51.945,PR,2017-01-07,Jan
2016/2017,Novo Machado,-27.574,-54.505,RS,2017-01-02,Jan
2016/2017,Palmital,-24.893,-52.203,PR,2017-01-03,Jan
2016/2017,Palotina,-24.284,-53.84,PR,2017-01-19,Jan
2016/2017,Panambi,-28.293,-53.502,RS,2017-02-03,Feb
2016/2017,Pantano Grande,-30.191,-52.374,RS,2017-03-20,Mar
2016/2017,Passo Fundo,-28.263,-52.407,RS,2017-01-04,Jan
2016/2017,Pelotas,-31.772,-52.343,RS,2017-01-07,Jan
2016/2017,Piratini,-31.448,-53.104,RS,2017-03-06,Mar
2016/2017,Ponta Grossa,-25.095,-50.162,PR,2016-12-12,Dec
2016/2017,Quinta do Sol,-23.852,-52.13,PR,2017-01-11,Jan
2016/2017,Rancho Alegre do Oeste,-24.307,-52.954,PR,2017-01-06,Jan
2016/2017,Roncador,-24.603,-52.275,PR,2017-01-17,Jan
2016/2017,Saldanha Marinho,-28.393,-53.095,RS,2017-02-27,Feb
2016/2017,Santa Bárbara do Sul,-28.358,-53.247,RS,2017-01-11,Jan
2016/2017,Santa Maria,-29.684,-53.807,RS,2017-01-09,Jan
2016/2017,Santa Mariana,-23.151,-50.519,PR,2017-01-10,Jan
2016/2017,Santa Rosa,-27.871,-54.481,RS,2017-01-02,Jan
2016/2017,Santa Vitória do Palmar,-33.519,-53.368,RS,2017-03-20,Mar
2016/2017,Santiago,-29.192,-54.867,RS,2017-02-03,Feb
2016/2017,Santo Antônio das Missões,-28.511,-55.228,RS,2017-01-07,Jan
2016/2017,Santo Antônio do Palma,-28.497,-52.025,RS,2017-02-03,Feb
2016/2017,São Francisco de Paula,-29.448,-50.584,RS,2017-03-11,Mar
2016/2017,São Jerônimo,-29.959,-51.722,RS,2017-03-18,Mar
2016/2017,São João da Urtiga,-27.82,-51.828,RS,2017-01-13,Jan
2016/2017,São João do Ivaí,-23.98,-51.818,PR,2017-01-06,Jan
2016/2017,São Lourenço do Sul,-31.365,-51.978,RS,2017-03-22,Mar
2016/2017,São Luiz Gonzaga,-28.408,-54.961,RS,2017-01-05,Jan
2016/2017,São Martinho da Serra,-29.538,-53.855,RS,2017-02-02,Feb
2016/2017,São Pedro do Iguaçu,-24.936,-53.855,PR,2017-01-27,Jan
2016/2017,Selbach,-28.629,-52.953,RS,2017-01-12,Jan
2016/2017,Sertaneja,-23.037,-50.838,PR,2017-01-16,Jan
2016/2017,Sertão,-27.98,-52.26,RS,2017-01-05,Jan
2016/2017,Tapejara,-28.068,-52.014,RS,2017-02-15,Feb
2016/2017,Tapes,-30.673,-51.396,RS,2017-03-17,Mar
2016/2017,Terra Boa,-23.768,-52.444,PR,2017-01-10,Jan
2016/2017,Terra Roxa,-24.157,-54.097,PR,2016-12-20,Dec
2016/2017,Tibagi,-24.509,-50.414,PR,2016-12-21,Dec
2016/2017,Toledo,-24.714,-53.743,PR,2016-12-16,Dec
2016/2017,Tomazina,-23.778,-49.95,PR,2016-12-10,Dec
2016/2017,Três de Maio,-27.773,-54.24,RS,2017-01-11,Jan
2016/2017,Tupanciretã,-29.081,-53.836,RS,2017-02-03,Feb
2016/2017,Umuarama,-23.766,-53.325,PR,2017-02-14,Feb
2016/2017,Uraí,-23.198,-50.796,PR,2017-01-17,Jan
2016/2017,Vacaria,-28.512,-50.934,RS,2017-03-15,Mar
2016/2017,Ventania,-24.246,-50.243,PR,2016-12-27,Dec
2016/2017,Vila Lângaro,-28.107,-52.144,RS,2017-03-13,Mar
2017/2018,Alto Piquiri,-24.028,-53.441,PR,2018-01-11,Jan
2017/2018,André da Rocha,-28.631,-51.571,RS,2018-03-13,Mar
2017/2018,Ângulo,-23.195,-51.915,PR,2017-12-19,Dec
2017/2018,Arapongas,-23.419,-51.424,PR,2018-01-12,Jan
2017/2018,Arapoti,-24.158,-49.827,PR,2017-12-22,Dec
2017/2018,Araruna,-23.932,-52.496,PR,2018-01-20,Jan
2017/2018,Assis Chateaubriand,-24.42,-53.521,PR,2018-01-11,Jan
2017/2018,Barbosa Ferraz,-24.03,-52.012,PR,2018-01-15,Jan
2017/2018,Boa Ventura de São Roque,-24.869,-51.628,PR,2018-01-09,Jan
2017/2018,Bossoroca,-28.73,-54.9,RS,2018-01-03,Jan
2017/2018,Brasilândia do Sul,-24.197,-53.525,PR,2017-12-23,Dec
2017/2018,Cafelândia,-24.618,-53.32,PR,2017-12-26,Dec
2017/2018,Cambé,-23.276,-51.278,PR,2018-01-12,Jan
2017/2018,Campina da Lagoa,-24.592,-52.799,PR,2018-01-09,Jan
2017/2018,Campina do Simão,-25.079,-51.827,PR,2018-01-30,Jan
2017/2018,Campo Mourão,-24.046,-52.383,PR,2017-12-07,Dec
2017/2018,Campo Novo,-27.675,-53.803,RS,2018-02-08,Feb
2017/2018,Cândido de Abreu,-24.567,-51.333,PR,2018-01-23,Jan
2017/2018,Candói,-25.663,-52.126,PR,2018-01-21,Jan
2017/2018,Cantagalo,-25.374,-52.126,PR,2018-02-20,Feb
2017/2018,Capão Bonito do Sul,-28.128,-51.395,RS,2018-02-23,Feb
2017/2018,Capão do Leão,-31.763,-52.484,RS,2018-02-27,Feb
2017/2018,Carazinho,-28.284,-52.786,RS,2018-02-22,Feb
2017/2018,Cascavel,-24.956,-53.455,PR,2017-12-22,Dec
2017/2018,Caseiros,-28.269,-51.69,RS,2018-02-27,Feb
2017/2018,Castro,-24.791,-50.012,PR,2017-12-28,Dec
2017/2018,Chapada,-28.055,-53.068,RS,2018-01-23,Jan
2017/2018,Colorado,-28.524,-52.994,RS,2018-02-05,Feb
2017/2018,Condor,-28.208,-53.487,RS,2018-02-15,Feb
2017/2018,Corbélia,-24.799,-53.307,PR,2017-12-27,Dec
2017/2018,Coronel Bicaco,-27.716,-53.701,RS,2018-02-15,Feb
2017/2018,Coronel Vivida,-25.98,-52.568,PR,2017-12-09,Dec
2017/2018,Corumbataí do Sul,-24.101,-52.12,PR,2018-01-23,Jan
2017/2018,Cruz Alta,-28.639,-53.606,RS,2017-11-16,Nov
2017/2018,Cruzaltense,-27.668,-52.649,RS,2018-02-09,Feb
2017/2018,Derrubadas,-27.265,-53.861,RS,2018-01-18,Jan
2017/2018,Dom Pedrito,-30.983,-54.673,RS,2018-01-10,Jan
2017/2018,Erebango,-27.855,-52.302,RS,2018-01-30,Jan
2017/2018,Erechim,-27.634,-52.274,RS,2018-02-09,Feb
2017/2018,Esmeralda,-28.054,-51.19,RS,2018-02-09,Feb
2017/2018,Espumoso,-28.725,-52.85,RS,2018-02-14,Feb
2017/2018,Estação,-27.911,-52.26,RS,2018-01-15,Jan
2017/2018,Farol,-24.1,-52.623,PR,2017-12-28,Dec
2017/2018,Faxinal,-24.001,-51.32,PR,2018-01-29,Jan
2017/2018,Giruá,-28.028,-54.35,RS,2018-02-02,Feb
2017/2018,Goioerê,-24.185,-53.028,PR,2017-12-27,Dec
2017/2018,Grandes Rios,-24.146,-51.506,PR,2018-01-26,Jan
2017/2018,Honório Serpa,-26.141,-52.387,PR,2018-01-24,Jan
2017/2018,Horizontina,-27.626,-54.308,RS,2018-02-14,Feb
2017/2018,Ibiporã,-23.269,-51.048,PR,2018-01-10,Jan
2017/2018,Ibirubá,-28.628,-53.09,RS,2018-02-05,Feb
2017/2018,Ijuí,-28.388,-53.915,RS,2017-12-21,Dec
2017/2018,Imbituva,-25.23,-50.604,PR,2018-01-09,Jan
2017/2018,Independência,-27.833,-54.188,RS,2018-02-14,Feb
2017/2018,Ipiranga do Sul,-27.937,-52.426,RS,2018-02-03,Feb
2017/2018,Iracema do Oeste,-24.428,-53.355,PR,2018-01-03,Jan
2017/2018,Itaipulândia,-25.137,-54.302,PR,2017-11-23,Nov
2017/2018,Itambé,-23.661,-51.99,PR,2018-01-19,Jan
2017/2018,Ivaiporã,-24.248,-51.685,PR,2018-01-08,Jan
2017/2018,Jaboticaba,-27.631,-53.277,RS,2018-02-05,Feb
2017/2018,Janiópolis,-24.142,-52.782,PR,2018-01-10,Jan
2017/2018,Jesuítas,-24.385,-53.388,PR,2018-01-03,Jan
2017/2018,Joia,-28.647,-54.122,RS,2018-02-10,Feb
2017/2018,Júlio de Castilhos,-29.227,-53.682,RS,2017-12-14,Dec
2017/2018,Juranda,-24.42,-52.843,PR,2018-01-04,Jan
2017/2018,Kaloré,-23.817,-51.668,PR,2018-01-22,Jan
2017/2018,Lagoa dos Três Cantos,-28.571,-52.858,RS,2018-02-14,Feb
2017/2018,Lagoa Vermelha,-28.209,-51.526,RS,2018-01-05,Jan
2017/2018,Londrina,-23.31,-51.163,PR,2017-12-06,Dec
2017/2018,Luiziana,-24.286,-52.276,PR,2017-12-26,Dec
2017/2018,Mamborê,-24.319,-52.53,PR,2017-12-20,Dec
2017/2018,Mangueirinha,-25.941,-52.176,PR,2018-01-24,Jan
2017/2018,Manoel Ribas,-24.516,-51.668,PR,2018-01-29,Jan
2017/2018,Marcelino Ramos,-27.462,-51.906,RS,2018-01-28,Jan
2017/2018,Marialva,-23.485,-51.792,PR,2018-01-12,Jan
2017/2018,Maripá,-24.418,-53.83,PR,2017-12-11,Dec
2017/2018,Marumbi,-23.706,-51.639,PR,2018-01-23,Jan
2017/2018,Mauá da Serra,-23.901,-51.229,PR,2017-12-30,Dec
2017/2018,Medianeira,-25.295,-54.094,PR,2018-01-04,Jan
2017/2018,Moreira Sales,-24.062,-53.007,PR,2018-01-06,Jan
2017/2018,Muitos Capões,-28.314,-51.182,RS,2018-02-14,Feb
2017/2018,Não-Me-Toque,-28.459,-52.821,RS,2018-02-09,Feb
2017/2018,Nova Aurora,-24.529,-53.256,PR,2017-12-28,Dec
2017/2018,Nova Santa Rosa,-24.466,-53.953,PR,2017-12-26,Dec
2017/2018,Novo Machado,-27.574,-54.505,RS,2018-02-14,Feb
2017/2018,Ourizona,-23.405,-52.199,PR,2017-12-20,Dec
2017/2018,Ouro Verde do Oeste,-24.805,-53.903,PR,2018-01-04,Jan
2017/2018,Paim Filho,-27.711,-51.761,RS,2018-01-28,Jan
2017/2018,Palmas,-26.484,-51.991,PR,2018-02-09,Feb
2017/2018,Palmeira das Missões,-27.899,-53.314,RS,2018-02-13,Feb
2017/2018,Palmital,-24.893,-52.203,PR,2018-01-22,Jan
2017/2018,Palotina,-24.284,-53.84,PR,2018-01-06,Jan
2017/2018,Panambi,-28.293,-53.502,RS,2018-02-09,Feb
2017/2018,Passo Fundo,-28.263,-52.407,RS,2018-01-26,Jan
2017/2018,Peabiru,-23.913,-52.343,PR,2018-01-12,Jan
2017/2018,Pinhão,-25.696,-51.66,PR,2018-02-24,Feb
2017/2018,Piraí do Sul,-24.526,-49.949,PR,2017-12-06,Dec
2017/2018,Pitanga,-24.757,-51.761,PR,2018-01-11,Jan
2017/2018,Ponta Grossa,-25.095,-50.162,PR,2018-01-09,Jan
2017/2018,Pontão,-28.059,-52.677,RS,2018-01-29,Jan
2017/2018,Primeiro de Maio,-22.851,-51.028,PR,2018-01-23,Jan
2017/2018,Quarto Centenário,-24.279,-53.076,PR,2017-12-29,Dec
2017/2018,Quinta do Sol,-23.852,-52.13,PR,2018-01-12,Jan
2017/2018,Quinze de Novembro,-28.742,-53.095,RS,2018-02-15,Feb
2017/2018,Rancho Alegre do Oeste,-24.307,-52.954,PR,2017-12-28,Dec
2017/2018,Reserva,-24.65,-50.851,PR,2018-01-18,Jan
2017/2018,Rolândia,-23.31,-51.369,PR,2018-01-25,Jan
2017/2018,Roncador,-24.603,-52.275,PR,2018-01-11,Jan
2017/2018,Roque Gonzales,-28.131,-55.026,RS,2017-12-06,Dec
2017/2018,Sananduva,-27.95,-51.807,RS,2017-12-07,Dec
2017/2018,Santa Bárbara do Sul,-28.358,-53.247,RS,2018-01-11,Jan
2017/2018,Santa Maria,-29.684,-53.807,RS,2017-12-15,Dec
2017/2018,Santa Rosa,-27.871,-54.481,RS,2017-12-26,Dec
2017/2018,Santana do Livramento,-30.891,-55.533,RS,2018-01-23,Jan
2017/2018,Santiago,-29.192,-54.867,RS,2018-01-13,Jan
2017/2018,Santo Augusto,-27.851,-53.777,RS,2017-12-05,Dec
2017/2018,São João,-25.828,-52.725,PR,2018-02-23,Feb
2017/2018,São João do Ivaí,-23.98,-51.818,PR,2018-01-16,Jan
2017/2018,São João do Polêsine,-29.614,-53.446,RS,2018-02-01,Feb
2017/2018,São Jorge do Ivaí,-23.433,-52.293,PR,2018-01-05,Jan
2017/2018,São Luiz Gonzaga,-28.408,-54.961,RS,2018-02-13,Feb
2017/2018,São Miguel do Iguaçu,-25.348,-54.238,PR,2017-11-23,Nov
2017/2018,São Pedro do Iguaçu,-24.936,-53.855,PR,2018-01-03,Jan
2017/2018,São Pedro do Sul,-29.621,-54.179,RS,2018-02-02,Feb
2017/2018,São Sepé,-30.161,-53.565,RS,2018-02-02,Feb
2017/2018,Sarandi,-27.944,-52.923,RS,2018-01-25,Jan
2017/2018,Selbach,-28.629,-52.953,RS,2018-02-14,Feb
2017/2018,Sertaneja,-23.037,-50.838,PR,2017-12-01,Dec
2017/2018,Sertanópolis,-23.059,-51.036,PR,2018-01-15,Jan
2017/2018,Tapejara,-28.068,-52.014,RS,2018-03-08,Mar
2017/2018,Tapera,-28.626,-52.87,RS,2018-02-14,Feb
2017/2018,Tenente Portela,-27.371,-53.758,RS,2018-02-15,Feb
2017/2018,Terra Roxa,-24.157,-54.097,PR,2017-12-13,Dec
2017/2018,Tibagi,-24.509,-50.414,PR,2017-12-06,Dec
2017/2018,Toledo,-24.714,-53.743,PR,2017-12-29,Dec
2017/2018,Tomazina,-23.778,-49.95,PR,2018-01-18,Jan
2017/2018,Três de Maio,-27.773,-54.24,RS,2018-01-06,Jan
2017/2018,Três Passos,-27.456,-53.932,RS,2018-02-15,Feb
2017/2018,Tucunduva,-27.657,-54.44,RS,2018-02-14,Feb
2017/2018,Tupanciretã,-29.081,-53.836,RS,2018-02-13,Feb
2017/2018,Tuparendi,-27.756,-54.482,RS,2017-12-18,Dec
2017/2018,Turvo,-25.043,-51.53,PR,2018-01-24,Jan
2017/2018,Ubiratã,-24.545,-52.988,PR,2018-01-04,Jan
2017/2018,Umuarama,-23.766,-53.325,PR,2018-01-04,Jan
2017/2018,Vacaria,-28.512,-50.934,RS,2018-02-20,Feb
2017/2018,Verê,-25.881,-52.908,PR,2017-12-01,Dec
2017/2018,Victor Graeff,-28.56,-52.748,RS,2017-12-23,Dec
